{
"type": "FeatureCollection",
"name": "GREAT_ARMENIA_BATTLES",
"crs": { "type": "name", "properties": { "name": "urn:ogc:def:crs:OGC:1.3:CRS84" } },
"features": [
{ "type": "Feature", "properties": { "Id": null, "Name": "Битва при Артаксате (69 г. до н.э.)" }, "geometry": { "type": "Point", "coordinates": [ 44.552334405251138, 39.954683871523009 ] } },
{ "type": "Feature", "properties": { "Id": null, "Name": "Битва при Тигранакерте (69 г. до н.э.)" }, "geometry": { "type": "Point", "coordinates": [ 41.002689475053806, 38.141563143562472 ] } },
{ "type": "Feature", "properties": { "Id": null, "Name": "Осада Нисибиса (83 г. до н.э.)" }, "geometry": { "type": "Point", "coordinates": [ 41.220739537586176, 37.077820615781143 ] } },
{ "type": "Feature", "properties": { "Id": null, "Name": "Битва за 70 долин против Парфии (ок. 87 г. до н.э.)" }, "geometry": { "type": "Point", "coordinates": [ 44.003692664097962, 36.186351866782545 ] } },
{ "type": "Feature", "properties": { "Id": null, "Name": "Осада летней резиденции парфянских царей (90 г. до н.э.)" }, "geometry": { "type": "Point", "coordinates": [ 48.512772099656786, 34.81729989331204 ] } }
]
}
